City_ID,City,Lat,Lng,Max Temp,Humidity,Cloudiness,Wind Speed,Country,Date
0,puerto natales,-51.7236,-72.4875,6.25,65,40,9.26,CL,1727878433
1,margaret river,-33.95,115.0667,12.01,80,100,12.78,AU,1727878434
2,soygaon,20.6,75.6167,28.0,73,2,1.82,IN,1727878395
3,banda aceh,5.5577,95.3222,27.41,81,100,3.34,ID,1727878436
4,ribeira grande,38.5167,-28.7,25.22,83,75,11.83,PT,1727878437
5,crane,31.3974,-102.3501,20.12,53,0,2.46,US,1727878438
6,poltavka,54.3663,71.7632,6.51,43,0,3.41,RU,1727878439
7,kayangel,8.0823,134.7173,28.86,78,98,5.08,PW,1727878440
8,hamilton,39.1834,-84.5333,15.91,84,0,4.12,US,1727878159
9,iqaluit,63.7506,-68.5145,5.85,81,75,5.14,CA,1727878442
10,adamstown,-25.066,-130.1015,20.29,67,97,5.75,PN,1727878347
11,albany,42.6001,-73.9662,15.81,66,87,0.45,US,1727878176
12,punta arenas,-53.15,-70.9167,6.06,75,75,6.69,CL,1727878323
13,bredasdorp,-34.5322,20.0403,16.89,59,100,8.7,ZA,1727878447
14,grytviken,-54.2811,-36.5092,-4.55,75,25,8.56,GS,1727878448
15,kodiak,57.79,-152.4072,-1.27,93,40,2.06,US,1727878449
16,san patricio,28.017,-97.5169,25.97,65,0,2.64,US,1727878450
17,vadso,70.0744,29.7487,6.09,75,40,5.66,NO,1727878451
18,mount isa,-20.7333,139.5,24.87,20,0,3.6,AU,1727878452
19,udachny,66.4167,112.4,-0.81,96,100,5.29,RU,1727878453
20,villa la angostura,-40.7617,-71.6463,1.24,93,93,2.13,AR,1727878454
21,antonio enes,-16.2325,39.9086,27.18,72,3,5.39,MZ,1727878455
22,port mathurin,-19.6833,63.4167,23.13,72,100,7.39,MU,1727878456
23,olonkinbyen,70.9221,-8.7187,-1.03,76,93,6.78,SJ,1727878457
24,ushuaia,-54.8,-68.3,3.38,88,100,2.6,AR,1727878370
25,port-aux-francais,-49.35,70.2167,0.98,76,73,8.03,TF,1727878460
26,puerto ayora,-0.7393,-90.3518,19.75,100,100,2.24,EC,1727878461
27,yellowknife,62.456,-114.3525,0.31,87,71,6.71,CA,1727878198
28,patterson,37.4716,-121.1297,16.97,20,0,2.15,US,1727878463
29,west island,-12.1568,96.8225,25.99,78,100,8.23,CC,1727878465
30,avarua,-21.2078,-159.775,21.03,68,75,2.57,CK,1727878466
31,waitangi,-43.9535,-176.5597,11.57,89,97,4.47,NZ,1727878467
32,wajir,1.7471,40.0573,35.74,28,40,6.44,KE,1727878468
33,luderitz,-26.6481,15.1594,24.19,33,0,4.3,NA,1727878359
34,fortuna,40.5982,-124.1573,7.51,100,0,2.06,US,1727878470
35,waddan,29.1614,16.139,30.01,27,0,1.02,LY,1727878471
36,brzeziny,51.8002,19.7514,11.73,96,100,3.03,PL,1727878472
37,ceerigaabo,10.6162,47.368,22.23,57,64,0.1,SO,1727878473
38,ha'il,27.5219,41.6907,34.01,16,0,5.14,SA,1727878474
39,blackmans bay,-43.0167,147.3167,6.4,88,0,1.87,AU,1727878475
40,sisimiut,66.9395,-53.6735,5.65,62,100,5.9,GL,1727878476
41,birniwa,12.7903,10.2348,36.35,23,87,5.21,NG,1727878477
42,aberdeen,57.1437,-2.0981,14.55,56,13,3.6,GB,1727878271
43,uturoa,-16.7333,-151.4333,25.82,77,99,1.26,PF,1727878480
44,codrington,-38.2667,141.9667,6.58,72,0,5.34,AU,1727878481
45,vila franca do campo,37.7167,-25.4333,25.23,76,100,5.4,PT,1727878482
46,saipan,15.1355,145.701,28.39,83,40,4.63,MP,1727878483
47,ancud,-41.8697,-73.8203,8.94,81,97,2.06,CL,1727878484
48,wailua homesteads,22.0669,-159.378,25.44,89,75,5.14,US,1727878485
49,bethel,41.3712,-73.414,16.88,76,40,3.09,US,1727878486
50,dolbeau-mistassini,48.8763,-72.212,13.26,82,100,4.71,CA,1727878487
51,sechelt,49.4664,-123.7694,10.0,90,11,2.25,CA,1727878488
52,san antonio de pale,-1.4014,5.6325,24.94,80,96,6.9,GQ,1727878489
53,fale old settlement,-9.3852,-171.2468,27.73,77,24,5.69,TK,1727878490
54,college,64.8569,-147.8028,-1.22,83,20,2.06,US,1727878491
55,kirakira,-10.4544,161.9205,26.47,82,37,3.94,SB,1727878492
56,kodinsk,58.6881,99.1844,2.21,79,7,3.92,RU,1727878493
57,stanley,54.868,-1.6985,12.01,82,40,6.17,GB,1727878495
58,bilibino,68.0546,166.4372,-1.54,97,100,3.95,RU,1727878496
59,portland,45.5234,-122.6762,10.97,88,0,0.45,US,1727878390
60,edinburgh of the seven seas,-37.0676,-12.3116,14.2,87,100,11.74,SH,1727878498
61,acapulco de juarez,16.8634,-99.8901,25.9,89,100,2.06,MX,1727878499
62,invercargill,-46.4,168.35,8.34,90,88,2.68,NZ,1727878500
63,jamestown,42.097,-79.2353,13.34,93,100,3.09,US,1727878501
64,lompoc,34.6391,-120.4579,13.23,98,20,3.09,US,1727878502
65,isafjordur,66.0755,-23.124,7.02,93,100,2.57,IS,1727878503
66,ilulissat,69.2167,-51.1,6.01,49,75,7.72,GL,1727878504
67,duekoue,6.7472,-7.3496,26.55,79,94,1.23,CI,1727878505
68,shanhecun,44.7,127.2,5.39,74,0,3.76,CN,1727878506
69,hasaki,35.7333,140.8333,25.15,86,61,4.95,JP,1727878507
70,cerritos,33.8583,-118.0648,17.02,97,0,0.0,US,1727878291
71,papatowai,-46.5619,169.4708,7.54,89,100,5.27,NZ,1727878509
72,gadzhiyevo,69.2551,33.3362,5.78,73,48,7.07,RU,1727878510
73,kirs,59.3388,52.2447,7.45,45,71,2.44,RU,1727878511
74,ust-nera,64.5667,143.2,-5.79,92,64,1.65,RU,1727878512
75,nassau village-ratliff,30.5111,-81.8093,27.33,71,20,1.54,US,1727878225
76,horta,38.5333,-28.6333,22.8,90,75,11.83,PT,1727878516
77,taoudenni,22.6783,-3.9836,41.73,11,98,1.45,ML,1727878517
78,jidong,45.2167,131.0833,4.9,65,0,2.62,CN,1727878518
79,chake chake,-5.2459,39.7666,27.43,68,77,5.19,TZ,1727878519
80,nieuw amsterdam,5.8833,-55.0833,33.01,52,40,3.09,SR,1727878520
81,simanggang,1.2472,111.4528,24.99,94,100,0.0,MY,1727878521
82,burley,42.5357,-113.7928,8.98,40,0,2.06,US,1727878442
83,saint albans,51.75,-0.3333,14.61,89,100,6.17,GB,1727878523
84,weno,7.4515,151.8468,25.97,89,100,0.0,FM,1727878524
85,kabompo,-13.5927,24.2008,36.48,13,89,5.25,ZM,1727878525
86,cotonou,6.3654,2.4183,27.39,78,94,5.83,BJ,1727878280
87,zaxo,37.1482,42.7001,27.48,27,0,2.51,IQ,1727878527
88,arraial do cabo,-22.9661,-42.0278,31.98,43,0,7.72,BR,1727878528
89,fort mcmurray,56.7268,-111.381,-0.23,80,100,4.12,CA,1727878529
90,carnarvon,-24.8667,113.6333,18.08,63,97,8.89,AU,1727878530
91,guatrache,-37.6678,-63.5302,13.46,30,0,6.6,AR,1727878531
92,worland,44.0169,-107.9554,3.25,48,0,1.54,US,1727878260
93,cabo san lucas,22.8909,-109.9124,27.17,73,20,4.63,MX,1727878534
94,pont rouge,48.8833,-72.0825,12.87,80,100,4.77,CA,1727878535
95,taulaga,-11.0553,-171.0883,26.95,80,29,6.47,AS,1727878536
96,yarmouth,41.7057,-70.2286,17.78,78,75,6.17,US,1727878340
97,thompson,55.7435,-97.8558,1.09,86,40,5.66,CA,1727878538
98,hawaiian paradise park,19.5933,-154.9731,22.16,100,0,2.06,US,1727878539
99,bangar,16.8936,120.4243,26.19,85,100,1.96,PH,1727878541
100,wau,7.7029,27.9953,29.81,63,97,1.16,SS,1727878542
101,zaozersk,69.4005,32.4476,5.11,74,68,6.73,RU,1727878543
102,okhotsk,59.3833,143.3,4.66,79,74,1.22,RU,1727878544
103,klyuchi,52.2667,79.1667,8.21,35,58,4.69,RU,1727878546
104,puerto aysen,-45.4,-72.7,6.34,96,73,2.06,CL,1727878547
105,anaconda,46.1285,-112.9423,8.57,45,31,3.7,US,1727878548
106,port alfred,-33.5906,26.891,18.99,70,77,1.34,ZA,1727878549
107,longyearbyen,78.2186,15.6401,-3.64,86,88,1.68,SJ,1727878550
108,antsiranana,-12.2787,49.2917,25.82,69,41,6.97,MG,1727878551
109,tsiombe,-25.3,45.4833,20.71,60,100,5.33,MG,1727878552
110,hammerfest,70.6634,23.6821,4.25,93,40,2.06,NO,1727878553
111,tateyama,34.9833,139.8667,25.31,87,40,0.58,JP,1727878554
112,queenstown,-31.8976,26.8753,18.17,26,91,5.16,ZA,1727878293
113,afaahiti,-17.75,-149.2833,24.57,80,100,1.82,PF,1727878556
114,new norfolk,-42.7826,147.0587,7.06,93,0,0.93,AU,1727878557
115,twon-brass,4.3151,6.2418,26.78,80,100,6.32,NG,1727878558
116,arab,34.3182,-86.4958,19.92,63,0,2.56,US,1727878280
117,westport,41.1415,-73.3579,17.93,75,0,5.66,US,1727878351
118,awjilah,29.1081,21.2869,29.25,31,0,2.95,LY,1727878561
119,yarkovo,57.4028,67.0786,5.88,60,0,1.99,RU,1727878563
120,thunder bay,48.4001,-89.3168,13.99,54,100,5.66,CA,1727878448
121,paita,-5.0892,-81.1144,19.35,80,74,3.09,PE,1727878565
122,la passe,45.5549,-0.8967,17.75,57,99,2.17,FR,1727878566
123,atafu village,-8.5421,-172.5159,27.34,74,9,3.4,TK,1727878567
124,didim,37.3756,27.2678,24.2,51,0,6.3,TR,1727878568
125,hadibu,12.65,54.0333,26.95,74,30,0.73,YE,1727878569
126,sitka,57.0531,-135.33,7.94,81,100,2.57,US,1727878479
127,yung shue wan,22.2333,114.1167,27.01,53,80,1.79,HK,1727878571
128,baykal'sk,51.5058,104.1469,10.94,80,99,2.48,RU,1727878572
129,vandergrift,40.6028,-79.5648,15.04,76,100,1.34,US,1727878573
130,georgetown,5.4112,100.3354,28.96,81,20,1.03,MY,1727878516
131,itaituba,-4.2761,-55.9836,30.09,70,40,1.54,BR,1727878575
132,ghadamis,30.1337,9.5007,33.66,15,0,1.25,LY,1727878576
133,novouzensk,50.4592,48.1431,21.1,21,75,5.57,RU,1727878577
134,whitehorse,60.7161,-135.0538,1.56,100,100,5.14,CA,1727878580
135,axim,4.8699,-2.2405,26.75,77,86,5.87,GH,1727878581
136,happy valley-goose bay,53.3168,-60.3315,9.17,71,20,1.03,CA,1727878509
137,richards bay,-28.783,32.0377,18.92,59,57,3.75,ZA,1727878505
138,labytnangi,66.6572,66.4183,3.56,78,100,6.43,RU,1727878584
139,anderson,34.5334,-82.6499,22.57,87,0,2.52,US,1727878372
140,hermanus,-34.4187,19.2345,19.33,57,100,9.91,ZA,1727878586
141,chui,-33.6971,-53.4616,16.75,56,20,4.0,UY,1727878587
142,galesong,-5.3166,119.3661,28.33,69,20,2.71,ID,1727878588
143,magadan,59.5667,150.8,3.67,86,100,1.53,RU,1727878589
144,anar darah,32.7587,61.654,29.71,13,0,3.62,AF,1727878590
145,honggang,46.4667,124.8667,9.9,48,0,6.2,CN,1727878591
146,nantucket,41.2835,-70.0995,18.06,68,75,7.72,US,1727878580
147,alindao,5.0267,21.2088,23.97,89,100,2.35,CF,1727878594
148,petropavlovsk-kamchatsky,53.0452,158.6483,10.33,100,100,1.0,RU,1727878595
149,qaisumah,28.3112,46.1273,37.98,9,0,3.09,SA,1727878596
150,port elizabeth,-33.918,25.5701,18.16,74,40,5.14,ZA,1727878597
151,geraldton,-28.7667,114.6,15.23,72,75,7.72,AU,1727878598
152,las tablas,7.7667,-80.2833,27.52,73,12,0.55,PA,1727878600
153,anadyr,64.75,177.4833,5.28,86,100,8.0,RU,1727878602
154,simcoe,42.8334,-80.2997,10.63,89,89,4.2,CA,1727878318
155,badger,64.8,-147.5333,-1.27,86,20,2.06,US,1727878604
156,zhangjiakou,40.81,114.8794,9.23,52,0,0.94,CN,1727878605
157,marolambo,-20.05,48.1167,24.65,60,68,2.27,MG,1727878606
158,tazovsky,67.4667,78.7,2.69,97,100,5.62,RU,1727878607
159,tiksi,71.6872,128.8694,-6.27,84,45,2.77,RU,1727878608
160,novoutkinsk,56.993,59.5571,6.25,46,10,0.72,RU,1727878610
161,ambodifotatra,-16.9833,49.85,24.68,71,10,3.65,MG,1727878612
162,saynshand,44.8824,110.1163,9.27,55,0,4.7,MN,1727878613
163,waingapu,-9.6567,120.2641,26.72,77,100,1.23,ID,1727878614
164,socorro,31.6546,-106.3033,20.77,42,0,2.57,US,1727878416
165,narasannapeta,18.4167,84.05,28.13,81,100,1.87,IN,1727878616
166,dudinka,69.4058,86.1778,2.74,79,100,2.63,RU,1727878617
167,yelizovo,53.1873,158.3805,11.08,100,100,1.0,RU,1727878618
168,coroata,-4.13,-44.1242,35.11,41,11,1.45,BR,1727878619
169,masterton,-40.9597,175.6575,12.8,89,98,4.7,NZ,1727878620
170,kuanda,56.3161,116.0806,3.06,99,100,2.77,RU,1727878621
171,broken hill,-31.95,141.4333,15.72,40,2,4.61,AU,1727878496
172,namibe,-15.1961,12.1522,20.75,75,13,5.23,AO,1727878421
173,lebowakgomo,-24.2,29.5,17.25,28,0,6.42,ZA,1727878624
174,ambalangoda,6.2355,80.0538,27.66,82,33,3.48,LK,1727878625
175,kinmparana,12.8402,-4.9199,32.35,52,96,1.42,ML,1727878626
176,nguigmi,14.2495,13.1092,36.72,23,76,5.3,NE,1727878627
177,fortaleza,-3.7227,-38.5247,31.07,77,75,11.32,BR,1727878402
178,kerman,30.2832,57.0788,27.92,16,20,3.09,IR,1727878630
179,al majaridah,19.1236,41.9111,33.98,48,0,5.89,SA,1727878631
180,chonchi,-42.6128,-73.8092,7.49,94,100,0.69,CL,1727878632
181,sault ste. marie,46.5168,-84.3333,9.16,87,0,1.03,CA,1727878433
182,remire-montjoly,4.9167,-52.2667,32.02,66,22,2.57,GF,1727878634
183,obuase,6.206,-1.6619,28.83,69,95,1.47,GH,1727878635
184,ust'-charyshskaya pristan',52.3934,83.6635,10.75,62,100,3.91,RU,1727878636
185,qamdo,31.1667,97.2333,6.79,86,89,3.35,CN,1727878637
186,faya-largeau,17.9257,19.1043,39.94,15,0,7.2,TD,1727878638
187,paulo afonso,-9.4061,-38.2147,31.51,31,68,4.03,BR,1727878639
188,hotan,37.0997,79.9269,18.01,22,0,3.62,CN,1727878640
189,kangding,30.0513,101.9603,9.4,99,100,1.94,CN,1727878641
190,tanabe,33.7333,135.3667,23.19,78,100,1.45,JP,1727878642
191,port lincoln,-34.7333,135.8667,16.41,67,57,8.82,AU,1727878643
192,trairi,-3.2778,-39.2689,31.04,50,23,7.18,BR,1727878516
193,pucallpa,-8.3791,-74.5539,31.02,62,20,2.06,PE,1727878506
194,muisne,0.6,-80.0333,23.86,85,100,4.1,EC,1727878646
195,i-n-salah,27.1935,2.4607,38.34,11,0,4.69,DZ,1727878573
196,diego de almagro,-26.3667,-70.05,25.0,16,26,1.81,CL,1727878556
197,broome,42.2506,-75.833,15.39,82,100,3.13,US,1727878651
198,suva,-18.1416,178.4415,23.61,90,8,2.58,FJ,1727878652
199,evron,48.1564,-0.3997,16.9,84,94,2.57,FR,1727878653
200,amga,60.8953,131.9608,4.26,97,100,4.58,RU,1727878654
201,umluj,25.0213,37.2685,29.31,64,0,7.37,SA,1727878655
202,timimoun,29.2639,0.231,39.21,13,0,4.12,DZ,1727878656
203,flin flon,54.7682,-101.865,2.91,70,20,6.17,CA,1727878657
204,puerto deseado,-47.7503,-65.8938,6.68,55,23,5.8,AR,1727878658
205,puerto armuelles,8.2833,-82.8667,23.94,92,97,1.79,PA,1727878659
206,ciudad rodrigo,40.6,-6.5333,19.36,80,100,5.72,ES,1727878660
207,sirte,31.2089,16.5887,27.64,46,0,3.83,LY,1727878661
208,malabar,-33.9667,151.25,15.84,83,100,2.57,AU,1727878455
209,thinadhoo,0.5333,72.9333,29.13,70,63,3.67,MV,1727878663
210,benguela,-12.5763,13.4055,25.23,73,44,4.52,AO,1727878664
211,peshkopi,41.685,20.4289,21.64,43,10,2.2,AL,1727878665
212,fauske,67.2588,15.3918,7.75,84,49,0.34,NO,1727878666
213,bel ombre,-4.6167,55.4167,27.91,74,75,2.57,SC,1727878667
214,shubarshi,48.5872,57.1869,18.29,30,9,6.97,KZ,1727878668
215,griffith,41.5284,-87.4237,15.29,59,0,3.09,US,1727878670
216,harstad,68.799,16.5293,5.09,93,78,4.92,NO,1727878671
217,tralee,52.2704,-9.7026,15.14,77,100,4.12,IE,1727878672
218,kzyltu,53.6364,72.3414,7.38,38,0,3.92,KZ,1727878673
219,luena,-11.7833,19.9167,32.13,24,64,3.28,AO,1727878674
220,malabo,3.75,8.7833,26.9,82,100,5.24,GQ,1727878675
221,turochak,52.2576,87.1224,9.62,89,100,1.72,RU,1727878676
222,tucurui,-3.7661,-49.6725,35.0,41,67,2.16,BR,1727878677
223,nemuro,43.3236,145.575,15.89,87,100,5.96,JP,1727878529
224,eraan,9.0629,117.7016,26.92,87,100,1.39,PH,1727878408
225,talnakh,69.4865,88.3972,2.11,83,100,2.0,RU,1727878680
226,chamical,-30.36,-66.314,19.39,22,0,3.03,AR,1727878409
227,garden city,42.3256,-83.331,15.09,75,75,1.54,US,1727878682
228,kaspiyskiy,45.3929,47.3707,15.27,69,100,5.69,RU,1727878683
229,antalaha,-14.9003,50.2788,24.93,72,57,5.75,MG,1727878673
230,fedorovskiy,45.0972,40.9517,12.73,72,100,4.47,RU,1727878686
231,kentville,45.0835,-64.4988,14.43,70,0,2.06,CA,1727878687
232,nioki,-2.7167,17.6833,26.33,75,84,1.4,CD,1727878688
233,chalatenango,14.0333,-88.9333,21.63,96,100,0.35,SV,1727878689
234,pocatello,42.8713,-112.4455,11.05,43,9,4.92,US,1727878552
235,newman,37.3138,-121.0208,22.92,20,0,1.62,US,1727878691
236,enewetak,11.3474,162.3373,29.12,75,99,6.8,MH,1727878693
237,recani,31.2846,-4.2688,33.03,20,0,0.86,MA,1727878694
238,oshakati,-17.7833,15.6833,35.61,7,0,3.84,NA,1727878695
239,narayanavanam,13.4167,79.5833,33.88,71,98,3.03,IN,1727878696
240,mastung,29.7994,66.845,24.97,19,0,7.12,PK,1727878697
241,glace bay,46.1969,-59.957,13.87,77,75,7.72,CA,1727878698
242,wuyang,31.9925,116.2472,15.02,40,100,2.88,CN,1727878699
243,langsa,4.4683,97.9683,25.12,91,100,0.81,ID,1727878700
244,aasiaat,68.7098,-52.8699,1.92,77,100,5.28,GL,1727878701
245,urzhar,47.093,81.6294,14.71,27,4,2.1,KZ,1727878702
246,gisborne,-38.6533,178.0042,15.14,79,96,6.37,NZ,1727878703
247,priladozhskiy,59.85,31.4833,12.1,67,100,1.55,RU,1727878704
248,vega de alatorre,20.0333,-96.6333,22.14,86,100,10.14,MX,1727878705
249,alice springs,-23.7,133.8833,19.75,24,19,4.63,AU,1727878707
250,mahavelona,-17.6848,49.5087,24.56,70,0,2.93,MG,1727878708
251,makokou,0.5738,12.8642,26.79,79,100,1.21,GA,1727878709
252,gokwe,-18.2048,28.9349,27.35,34,96,5.88,ZW,1727878710
253,chinde,26.8212,87.7095,24.15,92,100,0.8,NP,1727878711
254,sumenep,-7.0167,113.8667,27.46,73,47,3.99,ID,1727878712
255,sakata,38.9167,139.855,17.68,78,100,1.6,JP,1727878713
256,qaqortoq,60.7167,-46.0333,4.72,53,26,3.18,GL,1727878714
257,diu,20.7141,70.9822,27.57,87,2,4.55,IN,1727878493
258,as sulayyil,20.4607,45.5779,37.74,12,2,6.65,SA,1727878588
259,usogorsk,63.4106,48.6872,7.3,69,100,2.19,RU,1727878717
260,revda,56.801,59.9303,6.26,47,7,0.64,RU,1727878718
261,santiago de cao,-7.9589,-79.2392,17.07,88,75,3.6,PE,1727878719
262,haiku-pauwela,20.9219,-156.3051,25.02,75,0,4.63,US,1727878720
263,east london,-33.0153,27.9116,17.52,67,20,4.12,ZA,1727878721
264,prosser,46.2068,-119.7689,7.65,83,68,2.96,US,1727878722
265,port sudan,19.6175,37.2164,32.01,53,1,4.64,SD,1727878724
266,kinablangan,7.6947,126.5503,25.73,86,100,1.64,PH,1727878725
267,lebu,-37.6167,-73.65,9.31,60,0,8.23,CL,1727878726
268,vilyuchinsk,52.9306,158.4028,11.15,90,100,1.09,RU,1727878727
269,kingston,17.997,-76.7936,31.76,66,40,3.09,JM,1727878702
270,castillos,-34.1667,-53.8333,15.64,56,55,4.22,UY,1727878729
271,utrik,11.2278,169.8474,28.37,79,7,6.91,MH,1727878730
272,kenora,49.8167,-94.4337,10.54,66,100,3.09,CA,1727878731
273,nishinoomote,30.7333,131.0,25.98,85,100,5.99,JP,1727878732
274,ylistaro,62.9396,22.5131,8.94,84,99,0.45,FI,1727878733
275,nova sintra,14.8667,-24.7167,27.23,80,84,3.88,CV,1727878734
276,mao,39.8885,4.2658,24.31,83,75,4.63,ES,1727878735
277,kirksville,40.1948,-92.5833,13.66,63,0,2.57,US,1727878736
278,wotho,10.1657,166.0102,28.59,77,54,5.35,MH,1727878737
279,bouafle,6.9904,-5.7442,25.0,92,100,0.95,CI,1727878738
280,kone,-21.0595,164.8658,17.75,89,20,1.4,NC,1727878739
281,karaman,37.0833,33.25,16.45,47,0,5.25,TR,1727878516
282,egilsstadir,65.2653,-14.3948,7.95,87,75,3.09,IS,1727878742
283,lagos,6.5833,3.75,28.24,72,100,3.35,NG,1727878551
284,hanzhong,33.0728,107.0303,14.82,64,96,0.7,CN,1727878744
285,bol'shoye murashkino,55.7826,44.7754,16.38,44,98,3.61,RU,1727878745
286,port saint john's,-31.6229,29.5448,17.67,62,53,3.32,ZA,1727878746
287,beykonak,36.3257,30.303,24.93,56,0,5.34,TR,1727878747
288,san luis,-33.295,-66.3356,14.51,16,3,8.11,AR,1727878748
289,pisco,-13.7,-76.2167,17.79,88,100,2.06,PE,1727878749
290,piti village,13.4626,144.6933,29.03,86,0,5.66,GU,1727878751
291,cheat lake,39.672,-79.8534,17.64,96,100,3.09,US,1727878752
292,hastings,50.8552,0.5729,16.66,30,98,8.79,GB,1727878604
293,dakhla,23.6848,-15.958,24.01,69,0,9.26,EH,1727878754
294,igarka,67.4667,86.5833,2.55,82,100,3.6,RU,1727878755
295,sao miguel do araguaia,-13.275,-50.1628,37.27,17,4,3.92,BR,1727878756
296,shizunai-furukawacho,42.3339,142.3669,15.57,79,99,8.4,JP,1727878757
297,antofagasta,-23.65,-70.4,17.6,69,45,2.61,CL,1727878477
298,rabo de peixe,37.8,-25.5833,24.73,88,20,6.69,PT,1727878760
299,gornopravdinsk,60.05,69.9,4.82,76,7,2.62,RU,1727878761
300,nayoro,44.3506,142.4578,10.54,95,100,1.5,JP,1727878762
301,kerikeri,-35.2268,173.9474,12.73,94,91,2.14,NZ,1727878763
302,kaiapoi,-43.3783,172.6401,10.6,94,100,6.69,NZ,1727878764
303,ulan bator,47.9077,106.8832,7.07,49,0,5.0,MN,1727878765
304,dondo,-19.6094,34.7431,22.73,75,100,5.43,MZ,1727878494
305,hithadhoo,-0.6,73.0833,28.73,74,80,4.36,MV,1727878767
306,koz'modem'yansk,56.3367,46.5711,13.78,36,96,3.27,RU,1727878768
307,selfoss,63.9331,-20.9971,9.47,81,100,4.96,IS,1727878769
308,khovd,48.0056,91.6419,11.59,36,100,0.57,MN,1727878770
309,vuktyl,63.8567,57.3094,6.31,55,82,4.42,RU,1727878771
310,karlskoga,59.3267,14.5239,12.47,54,85,2.89,SE,1727878772
311,lencois paulista,-22.5986,-48.8003,36.16,18,8,3.7,BR,1727878773
312,sydney,-33.8679,151.2073,15.61,85,100,3.6,AU,1727878693
313,holualoa,19.6228,-155.9522,21.91,88,100,0.0,US,1727878775
314,korla,41.7597,86.1469,17.78,32,100,3.02,CN,1727878776
315,mezhdurechensk,53.6942,88.0603,8.64,86,100,0.94,RU,1727878777
316,peterhead,57.5058,-1.7981,12.21,72,14,3.2,GB,1727878778
317,zeya,53.75,127.2667,4.9,77,95,1.17,RU,1727878781
318,vorgashor,67.5833,63.95,1.78,97,100,8.11,RU,1727878782
319,santo antonio do ica,-3.1022,-67.9397,34.05,42,80,0.97,BR,1727878783
320,kokoda,-8.8785,147.7407,24.47,98,100,0.66,PG,1727878784
321,zuenoula,7.4292,-6.0431,22.8,98,100,0.81,CI,1727878785
322,coquimbo,-29.9533,-71.3436,16.85,72,0,4.12,CL,1727878622
323,coahuayana de hidalgo,18.7,-103.6583,25.04,93,100,1.26,MX,1727878787
324,lihue,21.9789,-159.3672,25.77,85,75,5.14,US,1727878788
325,portage,41.1667,-81.1998,15.08,70,40,3.6,US,1727878490
326,barra de santo antonio,-9.4047,-35.5072,25.75,74,38,3.63,BR,1727878790
327,lata,40.1629,-8.3327,23.05,75,100,3.58,PT,1727878791
328,dalby,-27.1833,151.2667,14.46,76,96,8.29,AU,1727878792
329,zhob,31.3411,69.4481,29.15,13,0,4.53,PK,1727878794
330,preobrazheniye,42.9019,133.9064,8.17,62,0,2.5,RU,1727878795
331,castelo do piaui,-5.3222,-41.5525,37.1,24,9,2.36,BR,1727878796
332,nabire,-3.3667,135.4833,24.06,96,100,2.45,ID,1727878553
333,karmaskaly,54.3709,56.1837,11.95,38,3,3.86,RU,1727878798
334,laguna,38.421,-121.4238,18.87,63,0,1.54,US,1727878722
335,daru,-9.0763,143.2092,25.78,84,100,7.82,PG,1727878801
336,kavaratti,10.5669,72.642,28.36,74,87,0.73,IN,1727878802
337,filey,54.21,-0.2892,14.38,72,83,2.24,GB,1727878803
338,aykhal,66.0,111.5,-1.22,96,100,5.63,RU,1727878804
339,tchintabaraden,15.8969,5.7985,37.4,16,27,2.48,NE,1727878805
340,zhangzhou,24.5133,117.6556,20.5,78,100,1.97,CN,1727878806
341,iskateley,67.6803,53.1512,5.35,64,24,8.82,RU,1727878807
342,ta`u,-14.2336,-169.5144,26.18,77,91,7.48,AS,1727878808
343,baardheere,2.3446,42.2764,36.74,28,100,3.78,SO,1727878809
344,page,36.9147,-111.4558,20.62,20,0,0.91,US,1727878810
345,santa ana,33.7456,-117.8678,18.07,97,100,0.0,US,1727878811
346,mutuali,-14.8706,37.0044,31.84,33,55,5.8,MZ,1727878812
347,weining,26.85,104.2333,9.52,74,100,1.96,CN,1727878813
348,ginir,7.1333,40.7,18.86,72,65,3.38,ET,1727878814
349,greymouth,-42.4667,171.2,9.92,99,100,0.63,NZ,1727878815
350,temozon,20.8,-88.2167,26.05,91,91,1.58,MX,1727878816
351,vilyuysk,63.7553,121.6247,1.83,94,100,3.08,RU,1727878818
352,seosan,36.7817,126.4522,13.13,58,1,3.42,KR,1727878820
353,lerwick,60.1545,-1.1494,11.97,71,39,4.13,GB,1727878821
354,goure,13.9835,10.2704,36.35,21,34,2.31,NE,1727878822
355,iturama,-19.7281,-50.1956,36.91,16,9,3.64,BR,1727878823
356,baruun-urt,46.6806,113.2792,5.59,64,7,5.68,MN,1727878824
357,kura,11.7697,8.4303,34.62,32,82,4.78,NG,1727878825
358,callao,-12.0667,-77.15,18.73,82,100,2.57,PE,1727878826
359,tevriz,57.509,72.4042,4.17,73,6,2.19,RU,1727878827
360,saint-francois,46.4154,3.9054,14.82,67,100,2.06,FR,1727878828
361,baganga,7.5739,126.56,26.24,87,98,2.03,PH,1727878829
362,mkushi,-13.6202,29.3939,29.41,28,18,7.02,ZM,1727878830
363,thaon-les-vosges,48.25,6.4167,12.08,96,100,2.04,FR,1727878831
364,say,13.1007,2.3689,35.8,36,45,0.41,NE,1727878832
365,bardai,11.65,7.2333,32.67,37,100,4.6,NG,1727878833
366,tura,25.5198,90.2201,24.12,96,100,1.61,IN,1727878834
367,susuman,62.7833,148.1667,-5.19,95,95,0.75,RU,1727878836
368,nalut,30.3333,10.85,31.46,17,0,1.16,LY,1727878837
369,cockburn town,21.4612,-71.1419,28.46,65,16,3.28,TC,1727878838
370,miyaly,48.8844,53.7836,20.09,23,97,4.85,KZ,1727878839
371,neiafu,-18.65,-173.9833,25.38,83,75,7.2,TO,1727878840
372,vila velha,-20.3297,-40.2925,30.97,61,20,6.17,BR,1727878841
373,olinda,-8.0089,-34.8553,26.85,74,75,4.12,BR,1727878659
374,saint-pierre,-21.3393,55.4781,23.82,69,75,7.72,RE,1727878704
375,ryotsu-minato,38.0833,138.4333,15.61,83,100,3.96,JP,1727878845
376,villa gesell,-37.2639,-56.973,12.34,50,2,10.94,AR,1727878557
377,guerrero negro,27.9769,-114.0611,18.68,92,0,2.19,MX,1727878847
378,mossel bay,-34.1831,22.146,17.96,73,100,7.93,ZA,1727878848
379,prince rupert,54.3161,-130.3201,9.83,87,100,8.23,CA,1727878849
380,watampone,-4.5386,120.3279,24.95,88,91,1.31,ID,1727878850
381,arkhangel'sk,64.5401,40.5433,8.06,76,75,1.0,RU,1727878631
382,constantia,44.1833,28.65,18.38,51,100,2.47,RO,1727878852
383,koungou,-12.7336,45.2042,27.84,74,0,3.09,YT,1727878854
384,howick,-29.4779,30.2306,13.49,70,49,4.66,ZA,1727878855
385,jonquiere,48.4165,-71.2488,14.06,77,100,2.86,CA,1727878856
386,mount gambier,-37.8333,140.7667,7.9,81,0,2.25,AU,1727878857
387,salinas,36.6777,-121.6555,15.05,77,0,1.54,US,1727878858
388,alegrete,-29.7831,-55.7919,19.34,57,2,8.81,BR,1727878859
389,ola,59.5833,151.2833,3.86,83,97,1.84,RU,1727878860
390,ovalle,-30.5983,-71.2003,20.8,42,37,1.66,CL,1727878842
391,kovdor,67.5662,30.4758,3.59,67,82,1.9,RU,1727878862
392,sao gabriel da cachoeira,-0.1303,-67.0892,29.89,70,100,2.57,BR,1727878863
393,saquarema,-22.92,-42.5103,31.5,49,0,3.15,BR,1727878864
394,st. john's,47.5649,-52.7093,11.1,94,100,12.96,CA,1727878769
395,forster,-32.1667,152.5167,14.1,89,99,3.57,AU,1727878866
396,okha,53.5739,142.9478,4.63,75,37,3.82,RU,1727878867
397,tocopilla,-22.092,-70.1979,18.88,68,0,3.59,CL,1727878868
398,popondetta,-8.7537,148.2534,23.07,99,43,1.96,PG,1727878869
399,ternate,0.8,127.4,27.33,78,100,2.35,ID,1727878870
400,kachkanar,58.7,59.4948,5.61,62,38,2.0,RU,1727878871
401,katabu,-4.9333,122.5167,23.39,89,92,1.53,ID,1727878873
402,yola,9.2,12.4833,32.9,58,40,3.09,NG,1727878874
403,jumla,29.2747,82.1838,15.48,85,73,0.85,NP,1727878875
404,belyy yar,53.6039,91.3903,6.94,81,100,1.0,RU,1727878876
405,ust-tsilma,65.441,52.1498,6.81,58,91,4.2,RU,1727878878
406,rio grande,-32.035,-52.0986,17.45,73,4,5.54,BR,1727878631
407,murzuq,25.9155,13.9184,32.21,18,0,0.79,LY,1727878880
408,hobyo,5.3505,48.5268,26.1,77,6,7.12,SO,1727878881
409,miguel ahumada,30.6167,-106.5167,19.19,40,9,2.27,MX,1727878882
410,nikolayevsk-on-amure,53.1406,140.73,2.06,81,13,1.74,RU,1727878883
411,kosh-agach,50.0,88.6667,7.85,59,100,2.09,RU,1727878885
412,macapa,0.0389,-51.0664,31.99,66,75,3.09,BR,1727878867
413,bull savanna,17.8868,-77.5902,26.47,76,100,3.64,JM,1727878889
414,moyale,3.5167,39.0584,26.06,48,98,4.88,KE,1727878890
415,yemva,62.59,50.8594,8.29,61,99,2.61,RU,1727878891
416,alliance,40.9153,-81.1059,14.94,80,100,4.38,US,1727878892
417,peniche,39.3558,-9.3811,21.78,99,100,6.41,PT,1727878893
418,fuxin,42.0156,121.6589,11.63,42,0,1.76,CN,1727878894
419,toamasina,-18.1667,49.3833,26.0,73,40,2.57,MG,1727878895
420,morehead city,34.7229,-76.726,24.0,80,75,5.14,US,1727878827
421,klaksvik,62.2266,-6.589,9.86,73,83,5.38,FO,1727878898
422,conduaga,8.862,117.4893,26.71,86,100,2.24,PH,1727878899
423,valparaiso,-33.0393,-71.6273,19.13,51,0,3.6,CL,1727878900
424,severo-yeniseyskiy,60.3725,93.0408,-0.08,97,100,2.8,RU,1727878901
425,saldanha,-33.0117,17.9442,27.03,51,100,7.89,ZA,1727878902
426,mayenne,48.3333,-0.6667,15.34,80,77,2.46,FR,1727878903
427,suncho corral,-27.9336,-63.4294,23.63,26,7,6.69,AR,1727878904
428,pembroke,45.8168,-77.1162,11.21,92,100,2.56,CA,1727878905
429,kruisfontein,-34.0033,24.7314,16.58,56,99,8.79,ZA,1727878907
430,kidal,18.4411,1.4078,38.3,11,1,4.25,ML,1727878908
431,mount carmel,38.4109,-87.7614,15.97,57,7,3.03,US,1727878909
432,drabiv,49.963,32.1529,23.26,16,100,4.37,UA,1727878910
433,khash,28.2211,61.2158,29.97,15,14,3.23,IR,1727878911
434,galle,6.0367,80.217,27.21,83,76,3.28,LK,1727878912
435,cold lake,54.4502,-110.2017,0.97,93,20,4.12,CA,1727878913
436,howard springs,-12.497,131.047,28.95,77,3,3.11,AU,1727878914
437,east ballina,-28.8667,153.5833,17.96,71,100,7.68,AU,1727878915
438,tromso,69.6496,18.957,5.01,75,75,4.12,NO,1727878667
439,big rapids,43.6981,-85.4837,11.04,82,0,2.06,US,1727878917
440,noumea,-22.2763,166.4572,21.08,75,82,5.87,NC,1727878918
441,jabat,7.75,168.9751,28.71,74,6,3.99,MH,1727878919
442,shalqar,47.8333,59.6,19.77,27,0,7.85,KZ,1727878920
443,braco do norte,-28.275,-49.1656,21.0,97,100,0.77,BR,1727878921
444,dowlatabad,32.7998,51.6955,28.82,12,0,9.26,IR,1727878922
445,nuuk,64.1835,-51.7216,5.34,70,20,1.54,GL,1727878875
446,huarmey,-10.0681,-78.1522,18.78,85,77,2.73,PE,1727878857
447,minas de marcona,-15.2119,-75.1103,16.04,63,81,4.09,PE,1727878925
448,tomatlan,19.9333,-105.25,23.91,94,100,1.63,MX,1727878926
449,katsuura,35.1333,140.3,25.02,90,72,2.98,JP,1727878927
450,dwarka,22.2394,68.9678,28.21,79,0,4.74,IN,1727878929
451,chom thong,18.4174,98.6743,23.8,96,100,0.07,TH,1727878930
452,pekanbaru,0.5333,101.45,25.18,100,20,0.0,ID,1727878931
453,hutchinson island south,27.2995,-80.2205,29.44,82,0,4.12,US,1727878932
454,kavieng,-2.5744,150.7967,28.05,79,100,4.71,PG,1727878933
455,beitbridge,-22.2167,30.0,26.13,24,0,9.25,ZW,1727878934
456,kharupatia,26.5167,92.1333,27.84,84,96,3.34,IN,1727878935
457,nuku'alofa,-21.1333,-175.2,23.19,88,100,7.2,TO,1727878936
458,tsetserleg,47.475,101.4542,4.6,67,6,2.63,MN,1727878937
459,neubrandenburg,53.5667,13.2667,12.87,75,77,7.53,DE,1727878938
460,palikir - national government center,6.9248,158.1611,23.41,100,100,0.0,FM,1727878939
461,tolanaro,-25.0319,46.9987,21.04,83,75,2.06,MG,1727878940
462,ujae,8.9322,165.7642,29.43,74,94,6.04,MH,1727878941
463,opuwo,-18.0607,13.84,35.0,8,1,5.44,NA,1727878942
464,manokwari,-0.8667,134.0833,26.39,78,98,1.58,ID,1727878943
465,laibin,23.7,109.2667,19.49,53,5,3.77,CN,1727878944
466,walvis bay,-22.9575,14.5053,18.53,59,35,3.6,NA,1727878945
467,oltinko'l,40.8011,72.1634,23.7,33,79,5.89,UZ,1727878946
468,utete,-7.986,38.758,31.54,43,42,5.89,TZ,1727878947
469,zelenogradsk,54.9589,20.4767,12.03,76,40,3.0,RU,1727878948
470,manismata,-2.4667,111.0333,23.96,95,100,1.09,ID,1727878949
471,al kharj,24.155,47.3346,38.32,12,1,5.06,SA,1727878951
472,tangalle,6.024,80.7911,26.83,86,73,3.3,LK,1727878952
473,barranca,-10.75,-77.7667,17.62,86,87,2.98,PE,1727878953
474,gap,44.6667,6.0,6.11,75,100,2.36,FR,1727878954
475,noosa heads,-26.3833,153.15,19.69,70,76,9.01,AU,1727878955
476,aripuana,-9.1667,-60.6333,36.25,34,8,1.26,BR,1727878956
477,alofi,-19.0595,-169.9187,23.11,75,93,9.38,NU,1727878957
478,kokpekty,48.75,82.4,12.25,50,84,5.38,KZ,1727878958
479,orsa,54.5153,30.4053,16.05,49,11,2.54,BY,1727878959
480,emmeloord,52.7108,5.7486,13.34,65,89,3.13,NL,1727878960
481,fort bragg,35.139,-79.006,22.68,91,100,2.57,US,1727878920
482,noyabrsk,63.1994,75.4507,3.55,76,100,4.82,RU,1727878962
483,novodvinsk,64.4165,40.8122,7.86,72,100,0.87,RU,1727878755
484,polyarnyy,69.1989,33.4478,5.78,73,57,6.98,RU,1727878964
485,nar'yan-mar,67.6713,53.087,5.39,64,23,8.84,RU,1727878965
486,usinsk,65.9939,57.5281,4.72,75,99,7.65,RU,1727878966
487,benghazi,32.1167,20.0667,24.85,54,0,3.72,LY,1727878967
488,singrauli,24.1997,82.6753,26.43,78,59,1.99,IN,1727878969
489,les sables-d'olonne,46.6667,-1.8333,16.82,67,71,2.61,FR,1727878970
490,mount pearl,47.5166,-52.7813,10.64,94,100,13.38,CA,1727878971
491,cibitoke,-2.8833,29.25,23.49,55,93,1.57,BI,1727878972
492,mirny,62.5353,113.9611,0.47,97,100,6.0,RU,1727878973
493,huanta,-12.9333,-74.25,18.22,46,38,0.55,PE,1727878974
494,serres,41.0856,23.5497,24.25,49,1,0.56,GR,1727878975
495,juneau,58.3019,-134.4197,7.28,100,75,0.0,US,1727878976
496,sinjai,-5.1241,120.253,24.87,84,99,2.12,ID,1727878977
497,nagqu,31.5,92.0,6.53,69,99,8.07,CN,1727878743
498,bogatyye saby,56.0102,50.4483,9.92,34,74,3.39,RU,1727878980
499,along,28.1667,94.7667,21.2,97,68,0.05,IN,1727878981
500,robertsport,6.7533,-11.3686,26.78,80,100,5.52,LR,1727878982
501,maintirano,-18.0667,44.0167,26.85,80,0,9.8,MG,1727878983
502,pavlodol'skaya,43.7192,44.4781,15.49,81,100,2.71,RU,1727878984
503,papao,-17.75,-149.55,24.82,82,100,2.07,PF,1727878985
504,ribeira brava,32.65,-17.0667,29.84,77,6,2.6,PT,1727878987
505,komsomol'skiy,43.9783,46.6985,19.15,70,89,5.03,RU,1727878988
506,las heras,-46.5419,-68.9359,7.1,51,71,6.46,AR,1727878989
507,voi,-3.3945,38.563,27.13,55,95,5.06,KE,1727878990
508,ornskoldsvik,63.2909,18.7153,11.53,58,20,0.51,SE,1727878991
509,lunas,10.6402,123.7525,27.9,80,100,2.92,PH,1727878992
510,fallon,39.4735,-118.7774,10.93,37,40,1.54,US,1727878993
511,byron bay,-28.65,153.6167,17.02,80,84,5.99,AU,1727878994
512,todtnau,47.8294,7.9438,12.28,89,100,0.12,DE,1727878995
513,dryden,49.7833,-92.7503,11.16,62,100,3.6,CA,1727878996
514,quellon,-43.1167,-73.6167,8.94,83,94,2.02,CL,1727878997
515,warrnambool,-38.3833,142.4833,7.81,74,0,4.63,AU,1727878998
516,calama,-22.4667,-68.9333,20.27,9,0,5.66,CL,1727878745
517,sinan,34.8262,126.1086,17.72,51,100,9.8,KR,1727879000
518,rawai,7.7797,98.3253,29.99,84,100,2.7,TH,1727879001
519,boca do acre,-8.7522,-67.3978,35.64,35,15,2.25,BR,1727879002
520,chittagong,22.9167,91.5,25.19,96,100,3.02,BD,1727878987
521,jinchang,38.4953,102.1739,11.88,22,0,2.44,CN,1727879005
522,patong,7.8961,98.2966,30.01,84,100,1.96,TH,1727879007
523,khulm,36.6974,67.6983,28.76,24,0,2.35,AF,1727879008
524,nevel',56.0209,29.9284,10.83,80,100,1.61,RU,1727879009
525,chapaev,50.2,51.1667,21.0,24,10,7.2,KZ,1727879010
526,san ignacio rio muerto,27.4167,-110.2333,26.7,68,0,1.7,MX,1727879012
527,mejit,10.2753,170.8646,28.37,78,5,5.85,MH,1727879013
528,ono,34.85,134.9333,20.66,75,100,7.48,JP,1727879014
529,qidu,26.7653,119.5472,18.49,88,100,2.05,CN,1727879015
530,santo antonio do sudoeste,-26.0736,-53.7253,33.46,31,53,3.1,BR,1727879016
531,kewanee,41.2456,-89.9248,12.93,35,15,2.93,US,1727878782
532,dabeiba,7.0017,-76.2672,25.54,81,73,1.37,CO,1727879018
533,makassar,-5.14,119.4221,29.03,74,20,2.06,ID,1727879019
534,urengoy,65.9667,78.3667,2.75,96,100,5.72,RU,1727879020
535,corralillo,22.9819,-80.5856,28.05,79,8,1.66,CU,1727879021
536,borkum,53.5809,6.6915,13.63,71,98,10.41,DE,1727879022
537,rockdale,33.6501,-84.0166,24.22,77,0,2.57,US,1727879023
538,bozoum,6.3193,16.3799,26.36,79,83,1.35,CF,1727878857
539,maragogi,-9.0122,-35.2225,27.28,66,71,4.1,BR,1727879026
540,hoeryong,42.4428,129.7508,4.48,77,0,1.77,KP,1727879028
541,"laikit, laikit ii (dimembe)",1.4792,124.9735,22.47,100,20,0.51,ID,1727879029
542,tadine,-21.55,167.8833,20.62,81,0,5.31,NC,1727879030
543,stephenville,32.2207,-98.2023,21.19,74,0,0.45,US,1727879031
544,dombarovskiy,50.7587,59.5386,13.24,31,10,7.56,RU,1727879032
545,adrar,20.5022,-10.0711,39.46,13,78,5.34,MR,1727878792
546,porbandar,21.6422,69.6093,28.24,79,0,4.87,IN,1727879034
547,humaita,-7.5061,-63.0208,36.15,36,37,1.34,BR,1727879035
